[
  {
    "id": 1,
    "name": "ユーザーA",
    "profile": {
      "employment": {
        "company": {
          "name": "ABC株式会社",
          "location": {
            "city": "東京",
            "zip": "100-0001"
          }
        },
        "position": "エンジニア"
      }
    }
  },
  {
    "id": 2,
    "name": "ユーザーB",
    "profile": {
      "employment": {
        "company": {
          "name": "XYZ株式会社",
          "location": {
            "city": "大阪",
            "zip": "530-0001"
          }
        },
        "position": "デザイナー"
      }
    }
  },
  {
    "id": 3,
    "name": "ユーザーC",
    "profile": {
      "employment": {
        "company": {
          "name": "LMN株式会社",
          "location": {
            "city": "名古屋",
            "zip": "460-0001"
          }
        },
        "position": "マーケター"
      }
    }
  },
  {
    "id": 4,
    "name": "ユーザーD",
    "profile": {
      "employment": {
        "company": {
          "name": "OPQ株式会社",
          "location": {
            "city": "札幌",
            "zip": "060-0001"
          }
        },
        "position": "営業"
      }
    }
  },
  {
    "id": 5,
    "name": "ユーザーE",
    "profile": {
      "employment": {
        "company": {
          "name": "RST株式会社",
          "location": {
            "city": "福岡",
            "zip": "810-0001"
          }
        },
        "position": "人事"
      }
    }
  },
  {
    "id": 6,
    "name": "ユーザーF",
    "profile": {
      "employment": {
        "company": {
          "name": "UVW株式会社",
          "location": {
            "city": "京都",
            "zip": "600-0001"
          }
        },
        "position": "経理"
      }
    }
  },
  {
    "id": 7,
    "name": "ユーザーG",
    "profile": {
      "employment": {
        "company": {
          "name": "EFG株式会社",
          "location": {
            "city": "横浜",
            "zip": "220-0001"
          }
        },
        "position": "法務"
      }
    }
  },
  {
    "id": 8,
    "name": "ユーザーH",
    "profile": {
      "employment": {
        "company": {
          "name": "HIJ株式会社",
          "location": {
            "city": "神戸",
            "zip": "650-0001"
          }
        },
        "position": "広報"
      }
    }
  },
  {
    "id": 9,
    "name": "ユーザーI",
    "profile": {
      "employment": {
        "company": {
          "name": "KLM株式会社",
          "location": {
            "city": "仙台",
            "zip": "980-0001"
          }
        },
        "position": "研究員"
      }
    }
  },
  {
    "id": 10,
    "name": "ユーザーJ",
    "profile": {
      "employment": {
        "company": {
          "name": "NOP株式会社",
          "location": {
            "city": "広島",
            "zip": "730-0001"
          }
        },
        "position": "開発"
      }
    }
  },
  {
    "id": 11,
    "name": "ユーザーK",
    "profile": {
      "employment": {
        "company": {
          "name": "QRS株式会社",
          "location": {
            "city": "新潟",
            "zip": "950-0001"
          }
        },
        "position": "サポート"
      }
    }
  },
  {
    "id": 12,
    "name": "ユーザーL",
    "profile": {
      "employment": {
        "company": {
          "name": "TUV株式会社",
          "location": {
            "city": "金沢",
            "zip": "920-0001"
          }
        },
        "position": "企画"
      }
    }
  },
  {
    "id": 13,
    "name": "ユーザーM",
    "profile": {
      "employment": {
        "company": {
          "name": "WXY株式会社",
          "location": {
            "city": "岡山",
            "zip": "700-0001"
          }
        },
        "position": "運用"
      }
    }
  },
  {
    "id": 14,
    "name": "ユーザーN",
    "profile": {
      "employment": {
        "company": {
          "name": "ZAB株式会社",
          "location": {
            "city": "熊本",
            "zip": "860-0001"
          }
        },
        "position": "分析"
      }
    }
  },
  {
    "id": 15,
    "name": "ユーザーO",
    "profile": {
      "employment": {
        "company": {
          "name": "CDE株式会社",
          "location": {
            "city": "松山",
            "zip": "790-0001"
          }
        },
        "position": "品質管理"
      }
    }
  },
  {
    "id": 16,
    "name": "ユーザーP",
    "profile": {
      "employment": {
        "company": {
          "name": "FGH株式会社",
          "location": {
            "city": "鹿児島",
            "zip": "892-0001"
          }
        },
        "position": "調達"
      }
    }
  },
  {
    "id": 17,
    "name": "ユーザーQ",
    "profile": {
      "employment": {
        "company": {
          "name": "IJK株式会社",
          "location": {
            "city": "長崎",
            "zip": "850-0001"
          }
        },
        "position": "物流"
      }
    }
  },
  {
    "id": 18,
    "name": "ユーザーR",
    "profile": {
      "employment": {
        "company": {
          "name": "LMO株式会社",
          "location": {
            "city": "大分",
            "zip": "870-0001"
          }
        },
        "position": "生産"
      }
    }
  },
  {
    "id": 19,
    "name": "ユーザーS",
    "profile": {
      "employment": {
        "company": {
          "name": "PQR株式会社",
          "location": {
            "city": "和歌山",
            "zip": "640-0001"
          }
        },
        "position": "設計"
      }
    }
  },
  {
    "id": 20,
    "name": "ユーザーT",
    "profile": {
      "employment": {
        "company": {
          "name": "STU株式会社",
          "location": {
            "city": "高松",
            "zip": "760-0001"
          }
        },
        "position": "営業企画"
      }
    }
  }
]
